stop_id,stop_code,stop_name,stop_lat,stop_lon
124,124,'Уручча',53.945354,27.687908
123,123,'Барысауски Тракт',53.938420,27.666378
122,122,'Усход',53.934450,27.651363
121,121,'Маскоуская',53.927972,27.627798
120,120,'Парк Чалюскiнцау',53.923975,27.612121
